[
  {
    "id": "ChIJUSgkTwDD54gR0ZOt7l736kI",
    "name": "Odell Pickleball Courts",
    "slug": "odell-pickleball-courts-the-villages-fl",
    "address": "2260 Odell Cir, The Villages, FL 32162, USA",
    "lat": 28.878165,
    "lng": -81.960619,
    "rating": 5,
    "reviewCount": 1,
    "types": [
      "establishment",
      "point_of_interest"
    ],
    "businessStatus": "OPERATIONAL",
    "placeId": "ChIJUSgkTwDD54gR0ZOt7l736kI",
    "city": "The Villages",
    "state": "FL"
  },
  {
    "id": "ChIJ7WIhghTF54gRictC-ILnY04",
    "name": "Saddlebrook Pickleball Courts",
    "slug": "saddlebrook-pickleball-courts-the-villages-fl",
    "address": "3010 Saddlebrook Ln, The Villages, FL 32162, USA",
    "lat": 28.931666,
    "lng": -82.000035,
    "rating": 5,
    "reviewCount": 2,
    "types": [
      "establishment",
      "point_of_interest"
    ],
    "businessStatus": "OPERATIONAL",
    "placeId": "ChIJ7WIhghTF54gRictC-ILnY04",
    "city": "The Villages",
    "state": "FL"
  },
  {
    "id": "ChIJf-ulbQDD54gRQdFMd3gdPpA",
    "name": "Lake Miona Pickleball Courts",
    "slug": "lake-miona-pickleball-courts-the-villages-fl",
    "address": "1480 Buena Vista Blvd, The Villages, FL 32162, USA",
    "lat": 28.8976192,
    "lng": -81.979968,
    "types": [
      "establishment",
      "point_of_interest"
    ],
    "businessStatus": "OPERATIONAL",
    "placeId": "ChIJf-ulbQDD54gRQdFMd3gdPpA",
    "city": "The Villages",
    "state": "FL"
  },
  {
    "id": "ChIJd9v9YADF54gR2YivS28Us7c",
    "name": "El Santiago Pickleball Courts",
    "slug": "el-santiago-pickleball-courts-the-villages-fl",
    "address": "2373 Enrique Dr, The Villages, FL 32162, USA",
    "lat": 28.9474025,
    "lng": -81.9845703,
    "types": [
      "establishment",
      "point_of_interest"
    ],
    "businessStatus": "OPERATIONAL",
    "placeId": "ChIJd9v9YADF54gR2YivS28Us7c",
    "city": "The Villages",
    "state": "FL"
  },
  {
    "id": "ChIJR-bXCADD54gRyjJAYU6RHeM",
    "name": "Hibiscus Pickleball Courts",
    "slug": "hibiscus-pickleball-courts-the-villages-fl",
    "address": "1740 Bailey Trail, The Villages, FL 32162, USA",
    "lat": 28.8916799,
    "lng": -81.9925426,
    "types": [
      "establishment",
      "point_of_interest"
    ],
    "businessStatus": "OPERATIONAL",
    "placeId": "ChIJR-bXCADD54gRyjJAYU6RHeM",
    "city": "The Villages",
    "state": "FL"
  },
  {
    "id": "ChIJT1QVdZbE54gRLLUkZHLXqsk",
    "name": "Pimlico Recreation Center",
    "slug": "pimlico-recreation-center-the-villages-fl",
    "address": "530 Belvedere Blvd, The Villages, FL 32162, USA",
    "lat": 28.9196686,
    "lng": -82.017467,
    "rating": 4.5,
    "reviewCount": 121,
    "photos": [
      "ATCDNfUbKtwlaj4vMVBz__aIpyDcuV4ytBJck-FdGwvQ5ipXKkMCzmx5NSBBOenYkat2OYtgK3zYb510CkYe-_C4lZhOtB2YAgCUE4Yzzwkb0VMqHtbGf-1u8-OiSKsJ0944NzoMwRB360Hh9_Vpg0qn0-4qLHXXKH0rggCDSLxkyFWBNub5hv04bhmPVNYuCWHND6RitkoprbiVf1TOTYQQz7nBo3TL6XCIj0R1VB6CcN-yQ3YXi0mfPd85VPgy6KyrygFMfp0GTVEXx2v6FA0MWVQkHaSxAow6Vc2QGcnmMx87DA"
    ],
    "types": [
      "establishment",
      "point_of_interest"
    ],
    "businessStatus": "OPERATIONAL",
    "placeId": "ChIJT1QVdZbE54gRLLUkZHLXqsk",
    "city": "The Villages",
    "state": "FL"
  },
  {
    "id": "ChIJ76lbdQDD54gRJkhW7RCpHy0",
    "name": "Canal Street Pickleball Courts",
    "slug": "canal-street-pickleball-courts-the-villages-fl",
    "address": "1513 Canal St, The Villages, FL 32162, USA",
    "lat": 28.8959811,
    "lng": -81.9730855,
    "types": [
      "establishment",
      "point_of_interest"
    ],
    "businessStatus": "OPERATIONAL",
    "placeId": "ChIJ76lbdQDD54gRJkhW7RCpHy0",
    "city": "The Villages",
    "state": "FL"
  },
  {
    "id": "ChIJ97G2CgDF54gRxaUVjr-b9Vo",
    "name": "Pimlico Pickleball Courts",
    "slug": "pimlico-pickleball-courts-the-villages-fl",
    "address": "530 Belvedere Blvd, The Villages, FL 32162, USA",
    "lat": 28.9196414,
    "lng": -82.0179799,
    "types": [
      "establishment",
      "point_of_interest"
    ],
    "businessStatus": "OPERATIONAL",
    "placeId": "ChIJ97G2CgDF54gRxaUVjr-b9Vo",
    "city": "The Villages",
    "state": "FL"
  },
  {
    "id": "ChIJSwkAW9rD54gRlMUPFXpPYoY",
    "name": "Colony Cottage Recreation Center",
    "slug": "colony-cottage-recreation-center-the-villages-fl",
    "address": "510 Colony Blvd, The Villages, FL 32162, USA",
    "lat": 28.8658809,
    "lng": -81.9612379,
    "rating": 4.6,
    "reviewCount": 286,
    "photos": [
      "ATCDNfX4K6a-pEY8JU-l9xYH08dh_JEeObMMPlPSuTlr31JNUcwyCQy4riGcvlYvxJnoD1Sf4dFNZCeILlXakjJljg8evHfA9ubJEx6br6Tmn1kw6nwroHqC0dom9JZm8lg4MV_cToTVzcamuj0VdUz4wxhNP5MZyEzQPdcX5feOxbmx8YNAsiOx9kTofi_QDJd4OfN7N8XdJ-BQ33bs7qJ4Vz2EXVr-K0HD3zNQE3jL99yaFOZtaoTzbIOTVBgiQe_qA9xx7lMEYAnwFCeo-3NcWqImwrSSiFwkySF1xDmHj0DIQg"
    ],
    "types": [
      "establishment",
      "point_of_interest"
    ],
    "businessStatus": "OPERATIONAL",
    "placeId": "ChIJSwkAW9rD54gRlMUPFXpPYoY",
    "city": "The Villages",
    "state": "FL"
  },
  {
    "id": "ChIJJ-brIwDD54gRUh2zLGLXdpA",
    "name": "Coconut Cove Pickleball Courts",
    "slug": "coconut-cove-pickleball-courts-the-villages-fl",
    "address": "1398 Stillwater Trail, The Villages, FL 32162, USA",
    "lat": 28.897102,
    "lng": -81.955711,
    "types": [
      "establishment",
      "point_of_interest"
    ],
    "businessStatus": "OPERATIONAL",
    "placeId": "ChIJJ-brIwDD54gRUh2zLGLXdpA",
    "city": "The Villages",
    "state": "FL"
  },
  {
    "id": "ChIJO61morvB54gRalaTmlH8c2I",
    "name": "Yellow Dot Pickleball",
    "slug": "yellow-dot-pickleball-the-villages-fl",
    "address": "105 Park Center St U 107, Leesburg, FL 34748, USA",
    "lat": 28.812933,
    "lng": -81.9149163,
    "rating": 4.9,
    "reviewCount": 24,
    "photos": [
      "ATCDNfXVLOfoVI_yShPlRvO7po_INKoklHo-HgpkuN5OL_KNRrZThcOjhASwUfr-KqEKMc-4zQqw7vmPHLh8Iffdn_TaI3kn0bk0IQPqfUG2sQrldQnuZCkqhplVQNb2IsGMfaRrcwD6qUE-g5yPgTM90Ibrt8b75PyU5LBo3sQ_cmX4bR-cPQoAig5yyWxQqCxwJmknHIpb2dapFfrPMqY-l4solqn14FnbXnYFnr94m6ns05_EHCRcP_p_Q2XMN1qwNmh-GemUDB16P2VA9verR8QSPoKsZjD9vEt4jmZ2QwfsIA"
    ],
    "types": [
      "establishment",
      "point_of_interest"
    ],
    "businessStatus": "OPERATIONAL",
    "placeId": "ChIJO61morvB54gRalaTmlH8c2I",
    "city": "The Villages",
    "state": "FL"
  },
  {
    "id": "ChIJUeIkCgDF54gRMf6UBbDE2ak",
    "name": "Cordoba Pickleball Courts",
    "slug": "cordoba-pickleball-courts-the-villages-fl",
    "address": "1233 Morse Blvd, The Villages, FL 32159, USA",
    "lat": 28.9450767,
    "lng": -81.96303309999999,
    "types": [
      "establishment",
      "point_of_interest"
    ],
    "businessStatus": "OPERATIONAL",
    "placeId": "ChIJUeIkCgDF54gRMf6UBbDE2ak",
    "city": "The Villages",
    "state": "FL"
  },
  {
    "id": "ChIJ40gaBMrE54gRGgqo5H2lCMM",
    "name": "Oxford Park",
    "slug": "oxford-park-the-villages-fl",
    "address": "Oxford Park, 4087 Co Rd 466, Oxford, FL 34484, USA",
    "lat": 28.927012,
    "lng": -82.0354499,
    "rating": 3.3,
    "reviewCount": 16,
    "photos": [
      "ATCDNfWE1cRWJOJeBPralLQ9G_OjwTSGSJAnznaEHSb8_8vOc_VwpSXYPKVlMkktJ8Fqw5P67CoGwGBJswrH1thTHhVSZRfdjj0UuOOLjUsIyAqk52kkPka9SqvO_wAtJEULbWzResswp4kT-Hy6swsQZQmHGPFVMqjnN1BNYeLIFGBYHJbZz9bIXncdlt8zEfnwpwlnFaAab5RUcjfyHzS_f5ty3PG3uXKWT1RzxAmYaewl04fekAbo47MtwxdDxiAx8ODnqB8bQDRp2tA3UgLX86WM4sooigCRvSwYX8xgkmdSek57mGMrfPK79rkIa9qc7vM26M3QFhmMCxF43p1wbFKHGa0w5E5XezKcn3rENEQiKaW9zZNSFOKfCir_mzhWyopCTd0zumk8vSPRPzs2zXBkTVqqkhpGI-qEjsuO0-ZETA"
    ],
    "types": [
      "establishment",
      "park",
      "point_of_interest"
    ],
    "businessStatus": "OPERATIONAL",
    "placeId": "ChIJ40gaBMrE54gRGgqo5H2lCMM",
    "city": "The Villages",
    "state": "FL"
  },
  {
    "id": "ChIJr7z2OADD54gR3-wcpq5h6OI",
    "name": "Big Cypress Pickleball Courts",
    "slug": "big-cypress-pickleball-courts-the-villages-fl",
    "address": "3110 Hendry Dr, Wildwood, FL 34785, USA",
    "lat": 28.857517,
    "lng": -82.01200899999999,
    "types": [
      "establishment",
      "point_of_interest"
    ],
    "businessStatus": "OPERATIONAL",
    "placeId": "ChIJr7z2OADD54gR3-wcpq5h6OI",
    "city": "The Villages",
    "state": "FL"
  },
  {
    "id": "ChIJXzoGGQDD54gRMh3cvDr7mPg",
    "name": "Fish Hawk Pickleball Courts",
    "slug": "fish-hawk-pickleball-courts-the-villages-fl",
    "address": "2318 Buttonwood Run, The Villages, FL 32162, USA",
    "lat": 28.8877484,
    "lng": -82.0118458,
    "types": [
      "establishment",
      "point_of_interest"
    ],
    "businessStatus": "OPERATIONAL",
    "placeId": "ChIJXzoGGQDD54gRMh3cvDr7mPg",
    "city": "The Villages",
    "state": "FL"
  },
  {
    "id": "ChIJXZkHXADD54gRoIn0bhtNxyw",
    "name": "Truman Pickleball Courts",
    "slug": "truman-pickleball-courts-the-villages-fl",
    "address": "2705 Canal St, The Villages, FL 32162, USA",
    "lat": 28.867448,
    "lng": -81.97907,
    "types": [
      "establishment",
      "point_of_interest"
    ],
    "businessStatus": "OPERATIONAL",
    "placeId": "ChIJXZkHXADD54gRoIn0bhtNxyw",
    "city": "The Villages",
    "state": "FL"
  },
  {
    "id": "ChIJx8ZCdgDD54gRpWfEQoK8fJI",
    "name": "Sterling Heights Pickleball Courts",
    "slug": "sterling-heights-pickleball-courts-the-villages-fl",
    "address": "2508 St Charles Pl, The Villages, FL 32162, USA",
    "lat": 28.874939,
    "lng": -82.0023449,
    "photos": [
      "ATCDNfVvY9-TC0l3Mw3sVB77eBwOBvF9--SVMuwarYYjx1kcMxQArPK_gcPdGh688YU1_6p_SJtP0vEPssyQ_Ylx3DWC-T1zFik89Peev_FPVnesvHUhmHvQR_chgJ-x2WAD7siqe3q9Df8I9NNPKo5qhX86CLUrCsEcpRCaQqDcfo2n-EqyUU-6l-7l5UNhZ-vdEyq_emKWs-M9spSjubeehiT0Zxui66f4-nPEvkM8sh6p_zqcgWuK9oIZEP3u4g2qLX9sc-KOJDRl72cjtClI-gByqhOqz5NBB2xfuKzNCCSArxuX_Djmz1znSydG1qn57dxtH8xRBCfnBpdgIc68lB5ARH0W9QAqYkY7jTsxX8Adscq-j-3mIYD-rZ2wyDyOfXX1rqXuS_mWoGOQSLVNncAGi8kLbtDFv_zzT-_8WdGdp62RXueWFYIHSu41vA"
    ],
    "types": [
      "establishment",
      "point_of_interest"
    ],
    "businessStatus": "OPERATIONAL",
    "placeId": "ChIJx8ZCdgDD54gRpWfEQoK8fJI",
    "city": "The Villages",
    "state": "FL"
  },
  {
    "id": "ChIJDzddu_TE54gRbHd-hq5G9Rw",
    "name": "Laurel Manor Recreation Center",
    "slug": "laurel-manor-recreation-center-the-villages-fl",
    "address": "1985 Laurel Manor Dr, The Villages, FL 32162, USA",
    "lat": 28.9266368,
    "lng": -82.0022955,
    "rating": 4.6,
    "reviewCount": 190,
    "photos": [
      "ATCDNfWLwLHJnyc2xvaZqoJ0pERWhZS2eok_yLFU2108pkEoEYOHxgAASbJkAL1iadZ-sH1eHJaYV6rt6lzmc39B33mr44WzHR8zEJXxDSyWEKpM0UjFrgWP1Dar5g3JTGm4D4Vf3ZOBCkYDEkVjDahVqvYR8egU5jdh7VE4eTb4j6WQggdghefeIX1Cv0qD_Zm8h0EIhiLDJMrLI1wRa4-uX4rlmkV956YHiU3-iEHy5GlIPxVAl5AdtpCr0zkRyTCkMWOjPJuOXITEj17QWqnD8PcRusnOoWaknswityjGPQzz_g"
    ],
    "types": [
      "establishment",
      "point_of_interest"
    ],
    "businessStatus": "OPERATIONAL",
    "placeId": "ChIJDzddu_TE54gRbHd-hq5G9Rw",
    "city": "The Villages",
    "state": "FL"
  },
  {
    "id": "ChIJNTWRiMTp54gRSJuUr8ybowU",
    "name": "Riverbend Recreation Center",
    "slug": "riverbend-recreation-center-the-villages-fl",
    "address": "1833 Corbin Trail, The Villages, FL 32163, USA",
    "lat": 28.7925656,
    "lng": -81.9977411,
    "rating": 4.8,
    "reviewCount": 116,
    "photos": [
      "ATCDNfVNFM4og82gj9ZqRf2K8COWxuGf0ltBHEhwMMdQl-L2pZ0TBBZawUMfpkoiyTl5EuLz6hZeJwirVEZwzhV8t0wunEdTaR1o28AnOzxPS4v_7jQBaxRbVyxj7yVW6FpCeWdv-0au4S1rtci38r8x_HNloQ9-gimo73WcmWQFHYSD3oj671zxvvNgHRdUKtu2E7m2siJD5VxqgMyKI0g_B5pOzwGUP82oD1nOCjTC57Q3b6C0JHkzTu1HpS82sRhEIoXLs35oughsvQUO53UdQdRRtKnt7L-ICN2IqxolWIDO9eo0jH1a4bMID1pH6wUguZWHWsxHJhticiAPzTlQaNcnZdXKNSUrWSgj5HwHtjkdqRIaBo47V3VusgHwxqFMghuiBnZZBIqAzbPKnJ5BoE4Tos2eRQnNP6rkODqAFgvcR8r1"
    ],
    "types": [
      "establishment",
      "point_of_interest"
    ],
    "businessStatus": "OPERATIONAL",
    "placeId": "ChIJNTWRiMTp54gRSJuUr8ybowU",
    "city": "The Villages",
    "state": "FL"
  },
  {
    "id": "ChIJC4RylvbE54gRq2hSaIJ0FbY",
    "name": "Saddlebrook Recreation Center",
    "slug": "saddlebrook-recreation-center-the-villages-fl",
    "address": "3010 Saddlebrook Ln, The Villages, FL 32162, USA",
    "lat": 28.9313942,
    "lng": -82.00111199999999,
    "rating": 4.6,
    "reviewCount": 142,
    "photos": [
      "ATCDNfU0JEJcbWfZAVfM3jpT0l5H-CzouHDpNVxuR0CB6xbe5dgJ90uyHn5SxhQ4m4xFokOy-a_vVfmPYWfYN-GXB81r21BrZt8g1YAueT4OlEGoGT3utjt_sL2_JKYlLi21KYIHfU9qWJYI0pzQclMvoL4F4F571BaBS7w1syZCzV3vrlPKyfJy_1lUyhLVkSIE6sBCthp9GzjEiNcLMZfe6IuNVW5Jo7r-M-mBfZzVC0RMqdp0FE6ZnYx0gqscXuQazWQZ6gN3xqXJNOAssSoSxffFnOLk39x6bqXvDkzHY7swKg"
    ],
    "types": [
      "establishment",
      "point_of_interest"
    ],
    "businessStatus": "OPERATIONAL",
    "placeId": "ChIJC4RylvbE54gRq2hSaIJ0FbY",
    "city": "The Villages",
    "state": "FL"
  },
  {
    "id": "ChIJ2_E5XADB54gR-HjGsWclJV8",
    "name": "Moyer Pickleball Courts",
    "slug": "moyer-pickleball-courts-the-villages-fl",
    "address": "3000 Moyer Loop, The Villages, FL 32163, USA",
    "lat": 28.861169,
    "lng": -81.951859,
    "types": [
      "establishment",
      "point_of_interest"
    ],
    "businessStatus": "OPERATIONAL",
    "placeId": "ChIJ2_E5XADB54gR-HjGsWclJV8",
    "city": "The Villages",
    "state": "FL"
  },
  {
    "id": "ChIJFdzZBnfr54gRwpKDCWwyDKg",
    "name": "Franklin Recreation Center",
    "slug": "franklin-recreation-center-the-villages-fl",
    "address": "6750 Meggison Rd, The Villages, FL 34762, USA",
    "lat": 28.7689709,
    "lng": -81.9460934,
    "rating": 4.9,
    "reviewCount": 60,
    "photos": [
      "ATCDNfW-MQ7FjXkYJwP0LWbWzEuFTh5MJTPB33PE-Xpra9sBy4amVFP9CRn8acfSvMchnuV4q3LHV--nvpSmmOzglCi6Wuzf06N9hxuMy_S6YxPzDb6QeMWvc6TOrhHZ0tqhu6Rgp-cUC8kjZTs8-GLdMGLjTCmEBEdDEpTHTOXaK2TbDxfD2RnnOKY0fTedCRwUOvutrmMa2KFnHeekDV3f5j3NZH2ZPuThVQJ3zHxq41U5DnZFX6YTiff_jYoH3DL7q_JBtpZ3u6NQUxAg_qRlbJb3TaovRuZkZG9VFIjPVKnPc3krV5zFDfrnUH1LexdtnPQjDjcgrf1mLAG1eM8GE8amkfZRmBWeTlyKjidZ3obHO-iPQtp_QFr40wKknbFYXS_SIWsXDwN_h848e738QNhLWgdaJEEHqb03KHKwPBFeF0w"
    ],
    "types": [
      "establishment",
      "point_of_interest"
    ],
    "businessStatus": "OPERATIONAL",
    "placeId": "ChIJFdzZBnfr54gRwpKDCWwyDKg",
    "city": "The Villages",
    "state": "FL"
  },
  {
    "id": "ChIJ8c2jEADD54gRdmyj7CRxoAw",
    "name": "Bacall Pickleball Courts",
    "slug": "bacall-pickleball-courts-the-villages-fl",
    "address": "2041 Canal St, The Villages, FL 32162, USA",
    "lat": 28.8839669,
    "lng": -81.9733444,
    "types": [
      "establishment",
      "point_of_interest"
    ],
    "businessStatus": "OPERATIONAL",
    "placeId": "ChIJ8c2jEADD54gRdmyj7CRxoAw",
    "city": "The Villages",
    "state": "FL"
  },
  {
    "id": "ChIJWx9-Jwvp54gROigLr5CI_hc",
    "name": "Everglades Pickleball Courts",
    "slug": "everglades-pickleball-courts-the-villages-fl",
    "address": "5497 Marsh Bend Trl, Wildwood, FL 34785, USA",
    "lat": 28.8027336,
    "lng": -82.0043031,
    "rating": 5,
    "reviewCount": 6,
    "photos": [
      "ATCDNfURhFQMdTPtUPpS00bNcbWXPexX2E-7DZgoGwNFdP8STRkvPrbemRRIR8e_sAz-JSDV5biaCP-KP5j4R6tmb-1sc-VKBZovmR6ajc959I2TDWscqY8y053ANbzBkWI_q1xomNtlobRyGmKToMXuCNzXlBHfi-HwuFzZ-4xgB6a3RFKIWVJllA2M1dMVYcb5SqnZrI36n3uPkTmUaOfbSxfPKfDMb7uYF1bvuzfyCcth0J-W3CNSIowUV4xvAW9S67Dy33coxOHKrm-XalDQFFKbj2c_0c1-vJ3htD3PFOOLc8UTtl3aP7E87DHJcSQ5L_6YUp2zTELLZ5MX3-7M5_Vek37zt8dfTz2fy9HtNTK9xnrNB1Te3r7vZYIueusVtZJOEoH4xwK_jRscMlcA9_zb8Rlug74h5ovMofsFJEtEV7I"
    ],
    "types": [
      "establishment",
      "point_of_interest"
    ],
    "businessStatus": "OPERATIONAL",
    "placeId": "ChIJWx9-Jwvp54gROigLr5CI_hc",
    "city": "The Villages",
    "state": "FL"
  },
  {
    "id": "ChIJj_G5N2_F54gRGFwdFzkyFNU",
    "name": "Mulberry Grove Recreation Center",
    "slug": "mulberry-grove-recreation-center-the-villages-fl",
    "address": "8445 SE 165th Mulberry Ln, The Villages, FL 32162, USA",
    "lat": 28.98147389999999,
    "lng": -82.013031,
    "rating": 4.4,
    "reviewCount": 264,
    "photos": [
      "ATCDNfU_kwuoIDr86gz9NqYmzdVNMbnwZ6Y9XaIfvLRgYr7AgMv-CHzJtOHQr9vdq1T_098JGLmVL1PbfB2YjDHyLCETk-HK7n48W-oh5RwraU2VeOcMsy1O5nYzTl0qsyZNi0yW46AEmXCmLDFwMd5TVehEY2x8Z8QV62Mpc4gWqQ6I5X_plNYVIPEI4-y-kwet_7todXF6y7uZ0ZbWSgmj6rMh7CvW-WX9oRT5_htlIdcG6Kp6aI3WE6laEpgnW5CcB0iO0jbfOzRqq4nwp497w_HZqAIiCK5gaCGlsTkPWeHZmA"
    ],
    "types": [
      "establishment",
      "point_of_interest"
    ],
    "businessStatus": "OPERATIONAL",
    "placeId": "ChIJj_G5N2_F54gRGFwdFzkyFNU",
    "city": "The Villages",
    "state": "FL"
  },
  {
    "id": "ChIJrcI6ZQDD54gRg3vlzpWSHoo",
    "name": "Colony Cottage Pickleball Courts",
    "slug": "colony-cottage-pickleball-courts-the-villages-fl",
    "address": "510 Colony Blvd, The Villages, FL 32162, USA",
    "lat": 28.8660144,
    "lng": -81.9617955,
    "types": [
      "establishment",
      "point_of_interest"
    ],
    "businessStatus": "OPERATIONAL",
    "placeId": "ChIJrcI6ZQDD54gRg3vlzpWSHoo",
    "city": "The Villages",
    "state": "FL"
  },
  {
    "id": "ChIJ9ccwMQDD54gRkFeOr5Mkv6g",
    "name": "Manatee Pickleball Courts",
    "slug": "manatee-pickleball-courts-the-villages-fl",
    "address": "1512 Hillsborough Trail, The Villages, FL 32163, USA",
    "lat": 28.848783,
    "lng": -81.990366,
    "types": [
      "establishment",
      "point_of_interest"
    ],
    "businessStatus": "OPERATIONAL",
    "placeId": "ChIJ9ccwMQDD54gRkFeOr5Mkv6g",
    "city": "The Villages",
    "state": "FL"
  },
  {
    "id": "ChIJKSlYxPDF54gRL4hLB-9mknE",
    "name": "FIRST RESPONDERS RECREATION CENTER",
    "slug": "first-responders-recreation-center-the-villages-fl",
    "address": "7746 Co Rd 42, Summerfield, FL 34491, USA",
    "lat": 28.9756562,
    "lng": -82.025892,
    "rating": 4.8,
    "reviewCount": 201,
    "photos": [
      "ATCDNfVI4XHRSCmA9zicoRdpX8-4u6tVn3Jo3IGqhRzUNqRjlE1mKCqxpNg2L6OqckKqf-9KPGefly_Rt27Mh-hFh90A2eBw6y11MxhTGtBvbcWUgWbnomcrh4RLtRjmMZqWu_7avvzB9VBi7UufG1x0uoXMyPFVp2gH8guo7Ep_67O0xBv7zvrjAi5KCGIUYB8DP9F3fTy8zXxXNFRD11F9_O7wIhnyV1uQCt-5PLQFltBB0RIfU7ezF5HthWY8qtF8RaxD1GIZww_0POFokYw0mzJbBueuUsg2qnvYYIodogHIfuloNEIq4eKdOj9ZdX4io1ClcnlK0N9t2vTJgnZP4L724Cox2-morF-sXhahVnJFs1Orkfp3CS7nFe0JEPCbwv7tZiAX7r4OGZgyFftjXBHSlVc0mtRfOK7bNBkrtks"
    ],
    "types": [
      "establishment",
      "point_of_interest"
    ],
    "businessStatus": "OPERATIONAL",
    "placeId": "ChIJKSlYxPDF54gRL4hLB-9mknE",
    "city": "The Villages",
    "state": "FL"
  },
  {
    "id": "ChIJs4X9OQDD54gR-e0b36dVDnk",
    "name": "Allamanda Pickleball Courts",
    "slug": "allamanda-pickleball-courts-the-villages-fl",
    "address": "1515 St Charles Pl, The Villages, FL 32162, USA",
    "lat": 28.885718,
    "lng": -81.990659,
    "types": [
      "establishment",
      "point_of_interest"
    ],
    "businessStatus": "OPERATIONAL",
    "placeId": "ChIJs4X9OQDD54gR-e0b36dVDnk",
    "city": "The Villages",
    "state": "FL"
  },
  {
    "id": "ChIJq_RUIQDF54gRQ__whrb1PxE",
    "name": "First Responders Pickleball Courts",
    "slug": "first-responders-pickleball-courts-the-villages-fl",
    "address": "7746 Co Rd 42, Summerfield, FL 34491, USA",
    "lat": 28.975244,
    "lng": -82.025769,
    "types": [
      "establishment",
      "point_of_interest"
    ],
    "businessStatus": "OPERATIONAL",
    "placeId": "ChIJq_RUIQDF54gRQ__whrb1PxE",
    "city": "The Villages",
    "state": "FL"
  },
  {
    "id": "ChIJy6pnYADD54gR8k-XU_ScG-w",
    "name": "Bacall Recreation Center",
    "slug": "bacall-recreation-center-the-villages-fl",
    "address": "2041 Canal St, The Villages, FL 32162, USA",
    "lat": 28.8838346,
    "lng": -81.9726488,
    "rating": 4.6,
    "reviewCount": 14,
    "photos": [
      "ATCDNfWkL_dSwv2KbXhvJpQlKFgKcUzqZmb41yX2c2uye4W65ejnY_1NxkqRP47xdNMFDkDP9B0uRRrpNVOvc5ogfeM1PMi_WrVSsNoA3-SG7_8LHSDYniIV0uomVkXQMLuBImlxwK6zP6wFdgM-Yo36O9PjRLJ51WvFpniJ9pn2fFvuP3CdgWK0T03l5LaNjKI8DYuDgvrVBeLqWTRo54QbWuq3RuLQiq-FIuuSUaQyEq6Yt_1Hz2ih9uanPODdu14JHKsNRosUuyqDi4pvqD8bUAy2_ny4x8G40AA-ayqWRxtM1Hq7dRZkUpRSCzLU8TeRMxGaqoLZIyhnL6c27bUFYCZ5pLqo-3IJPGfsP6KJYR9C2qEgfgCFM5qAJ8aGS0plHf6dR2tlTSKM7t-wknu_ddddbgfRUJXTr-KPztLtoLJs2FxTn5WwYCMeaViOzVpu"
    ],
    "types": [
      "establishment",
      "point_of_interest"
    ],
    "businessStatus": "OPERATIONAL",
    "placeId": "ChIJy6pnYADD54gR8k-XU_ScG-w",
    "city": "The Villages",
    "state": "FL"
  },
  {
    "id": "ChIJ_zrFE5vG54gROlPFH9MdOoE",
    "name": "Chula Vista Recreation Center",
    "slug": "chula-vista-recreation-center-the-villages-fl",
    "address": "1011 Rio Grande Ave, Lady Lake, FL 32159, USA",
    "lat": 28.93088819999999,
    "lng": -81.94636589999999,
    "rating": 4.4,
    "reviewCount": 175,
    "photos": [
      "ATCDNfX1qV1ONYt7zHhuJOjF7nBts2XACKRBvx7XArTVqHmk-2vMmhMI95PH99jWkyfckaIOt_G5nUkC1GkBXg7q2lm8jXiJO0PCn3zqr23nWLrju5DjbmwCZ4TRsPHM-lkzKDX0d-Roz6s3n-sShlifVV7MySQATrx0fdDONv-pWU-oIGTWZxTQjFlyCxrzB6darR0m134vSbhQIqlaPR8djhnW64QWCDgyw4XCSB4Cr-0fwqCGC2-zbUhOdvs_U-JJxT496LtAkFriZd0JRr6-LPEjWwf1P5f6rTmWsJ_4fHosVQ"
    ],
    "types": [
      "establishment",
      "point_of_interest"
    ],
    "businessStatus": "OPERATIONAL",
    "placeId": "ChIJ_zrFE5vG54gROlPFH9MdOoE",
    "city": "The Villages",
    "state": "FL"
  },
  {
    "id": "ChIJD3TaY_nD54gRo2ib6DPfKS8",
    "name": "Water Lily Recreation Center",
    "slug": "water-lily-recreation-center-the-villages-fl",
    "address": "4710 Marsh Bend Trl, Wildwood, FL 34785, USA",
    "lat": 28.818053,
    "lng": -82.0223638,
    "rating": 4.8,
    "reviewCount": 105,
    "photos": [
      "ATCDNfU9GGlun7JdMrlJwRU2XeKs3gB8ObQAsE2wyu9BGeWnabO87yV6w2Ntoo2jb1M9Bal51PcbYmgJPZ9iIQiMgWn0e0ISJ6Q_Fc086oxSObTitixRxbDl-u3sY2MYTHx--z2K0dg8M8zyUV5Kmd7RJM7g_ygQPDtuI-3FQYegxDRqwUnMw0N6nU1_3KyAP4nFzBwCA9GuKM9tTC1yCaV3TVUl2Eg5Ppi-Q-30CN70IMna4PSf0BTRKJIvBkmCHVwDYWmoIUNlbKHe9gHVZqb7lrshgfOV87-i3OEhOt0INjTBapD0Rd8xQYWTfpL1e0tO5aUJa3EtjCpPTLpOuG-jZusauhGjMcY5Jq6RvNAlJRt5jW3FtAmgdFXIpo0Hw5LL5RigRkoA4zFRtJtycR8ABk2NvJGULbkXwBNcyLl4gF0"
    ],
    "types": [
      "establishment",
      "point_of_interest"
    ],
    "businessStatus": "OPERATIONAL",
    "placeId": "ChIJD3TaY_nD54gRo2ib6DPfKS8",
    "city": "The Villages",
    "state": "FL"
  },
  {
    "id": "ChIJo41RX1HC54gRXeZ3dtprOqc",
    "name": "Manatee Recreation Center",
    "slug": "manatee-recreation-center-the-villages-fl",
    "address": "1512 Hillsborough Trail, The Villages, FL 32163, USA",
    "lat": 28.8480891,
    "lng": -81.99001489999999,
    "rating": 4.7,
    "reviewCount": 143,
    "photos": [
      "ATCDNfVAPvC_C1fS2SSLba9tndqqYC8Gf2ho9pI1hHkBf8U6OuwjPdPujwxNYPbhdT1nAyupvgXMtnc9gJOb0i210Ynfnlmq55itnPG4Is8mNXR5dHqZoT5moj2JQRELTS2Zl2HlOcPnp94A7D6ou30PiSGLizJ_rJMNdRMtxzJcQ_dLTLvvgNSgp83T-fX0Ua9fUyDpyem2ZA36lVy5zUMQ4As71lIJe_h3lxhAIhJ8rlSd74w1XlxLEPxCTF-6jpdmqHCsQFLwnFh2c-1n9APrvjHM0TO3OHuu-Oi2gpetyRPqHnCjllX0tt_dz9cfK7qvcDGj9MzvzhDOPoTSSGvGMgwpnza5j3_eKYVYklJVTC-wDDzkfD0Js0I89BmYHuD0PBsEVEiNp-N4FHKEWui6RMQHlYekTYgox0OPZvWr1Jzd2g"
    ],
    "types": [
      "establishment",
      "point_of_interest"
    ],
    "businessStatus": "OPERATIONAL",
    "placeId": "ChIJo41RX1HC54gRXeZ3dtprOqc",
    "city": "The Villages",
    "state": "FL"
  },
  {
    "id": "ChIJeWKmaxTC54gRMuEGKc_0Kss",
    "name": "Rohan Recreation Center",
    "slug": "rohan-recreation-center-the-villages-fl",
    "address": "850 Kristine Way, Wildwood, FL 34785, USA",
    "lat": 28.8246212,
    "lng": -81.97138210000001,
    "rating": 4.6,
    "reviewCount": 317,
    "photos": [
      "ATCDNfXvXoPI2N5zKf4cJtx2HAFvewRc86--jDuVVZ_zanpelP_5iTkGPriM6y2sdtB39YdSIH-sbSoyMCoFP3b3Cmq4lBjrPfBhwy-y9LfI11_OFaWMoYDhsx5l1_L0ZsY3Yb43JbtUlyuKOvE1GlIqfUsyoCdi38JNuJJSbW15JLDV7nZkYLAfL8qOIAabslCmWH7GafXFwXZ3duvqbApR2Wf5h0qHru47WWRiZsTFGTCXI5cjaeW42C70-XA1xhwFfBKbPhiRi4tqfFVwb7XAk7GMbYw6PthdCGjSfGbumbFdiQ"
    ],
    "types": [
      "establishment",
      "point_of_interest"
    ],
    "businessStatus": "OPERATIONAL",
    "placeId": "ChIJeWKmaxTC54gRMuEGKc_0Kss",
    "city": "The Villages",
    "state": "FL"
  },
  {
    "id": "ChIJeYyInqHD54gRTfOt-TGSQyI",
    "name": "SeaBreeze Recreation Center",
    "slug": "seabreeze-recreation-center-the-villages-fl",
    "address": "2384 Buena Vista Blvd, The Villages, FL 32162, USA",
    "lat": 28.875029,
    "lng": -81.992828,
    "rating": 4.7,
    "reviewCount": 318,
    "photos": [
      "ATCDNfVGvQBgvuHVqnTZfvP58jWSE5htqqpmfb6gvGDb6Q_OK-kXjghxKc7UfEDGRvKBtidGHnP85g1Fb2EB82LEXwqmRbTEWP6thiV1nt95FoBN4KU8KLucYx1BfBGwIHS7zTvr5p8J79oT0y_wrmWzFBB_dF3lUoy9nkpXa6JeoAc_YJoplRainfujt8PH6C_SScJhrwSjPEkqKA2XCNMGLR8xTkWYMnKLF8_-4GJt98NARSovi0oy3vBYnZ5rq6yNUbbDNGKE0I0uEc_sxvtEuR0A6cv7aQeRPI7G6yCftFQ"
    ],
    "types": [
      "establishment",
      "point_of_interest"
    ],
    "businessStatus": "OPERATIONAL",
    "placeId": "ChIJeYyInqHD54gRTfOt-TGSQyI",
    "city": "The Villages",
    "state": "FL"
  },
  {
    "id": "ChIJ2XevfAvD54gR01vyGC2Rjh0",
    "name": "Sterling Heights Recreation Center",
    "slug": "sterling-heights-recreation-center-the-villages-fl",
    "address": "2508 St Charles Pl, The Villages, FL 32162, USA",
    "lat": 28.8761393,
    "lng": -82.0022323,
    "rating": 4.4,
    "reviewCount": 79,
    "photos": [
      "ATCDNfUugNunMvOoi6wr8tK8VpIMX9PrmyAnARlRmymo-OtBpCiamzglTyzdv0K8yu5BRgZ8zk3FSE2n0Qo8pOn_MlmwvZ7vcrwGS0I64cx_ckwbXsvX6o9oB3f5k4qqrd9D8ltze_t-vcc2VAsZQEXTKI6-V9ZJEli-xapX8DtAWLL6_fcC7GoO5kCTOjy-4w569Fj_UzrtoaIHxaOiUfxqBigaHL_3GQHSgug8ob8RlUs_XZxV0ApLSENIBM7gB_Qrs1qcpPEWKxECcL6mrem5_SZeWYxw_7HZnh98CBBNf3U4hQ"
    ],
    "types": [
      "establishment",
      "park",
      "point_of_interest"
    ],
    "businessStatus": "OPERATIONAL",
    "placeId": "ChIJ2XevfAvD54gR01vyGC2Rjh0",
    "city": "The Villages",
    "state": "FL"
  },
  {
    "id": "ChIJ1aC8MADD54gRlsogkjFhnc8",
    "name": "SeaBreeze Pickleball Courts",
    "slug": "seabreeze-pickleball-courts-the-villages-fl",
    "address": "2384 Buena Vista Blvd, The Villages, FL 32162, USA",
    "lat": 28.87428,
    "lng": -81.99344599999999,
    "types": [
      "establishment",
      "point_of_interest"
    ],
    "businessStatus": "OPERATIONAL",
    "placeId": "ChIJ1aC8MADD54gRlsogkjFhnc8",
    "city": "The Villages",
    "state": "FL"
  },
  {
    "id": "ChIJb3pbkCbb54gRIXzAg7wGeTU",
    "name": "Pickle N' Poker at Oxford Downs",
    "slug": "pickle-n-poker-at-oxford-downs-the-villages-fl",
    "address": "17996 US-301, Summerfield, FL 34491, USA",
    "lat": 28.9613292,
    "lng": -82.04714109999999,
    "rating": 4.8,
    "reviewCount": 9,
    "photos": [
      "ATCDNfXt11_cD3pnMleKAEZIgbnAsspLfEt8vECt20aJAuCoitgMjdaqHVmxxvtAhGQg3EyELfiGmK13_88LQAtUI-EJlFOLCuILCx6YyF-NHriERlELUKgAOAj7DUlvADqNLKoq4LdDCOEBu8Wm86i3eBuGJCz9YuBxhXnG6yzLY0WUof0M-hPaLBt_q4C7nCF0WCYoZINA5R-Kr1uvTeQX5Gd2ccdj7tmqFtAVkrZ568ERc5wTZ_XMss-jVo4_W3GjIORXtBjN7lXuu1tLqD1U53yG9-El1eTjr5Qt5vDkLNXwPQ"
    ],
    "types": [
      "establishment",
      "point_of_interest"
    ],
    "businessStatus": "OPERATIONAL",
    "placeId": "ChIJb3pbkCbb54gRIXzAg7wGeTU",
    "city": "The Villages",
    "state": "FL"
  },
  {
    "id": "ChIJ43jYFwDD54gRihLpWk_4MlQ",
    "name": "Clarendon Pickleball Courts",
    "slug": "clarendon-pickleball-courts-the-villages-fl",
    "address": "2796 Tharp Ave, Wildwood, FL 34785, USA",
    "lat": 28.834981,
    "lng": -82.02491049999999,
    "rating": 4.7,
    "reviewCount": 3,
    "photos": [
      "ATCDNfUHNHLMRR7h-eaJD_U9MnYuiXRNilUsUZK0NmJ8t59fo67rspL_lJFQFrotPxt1TXE8-XpyWGYQ0rjr5CIDgVKGNMe3XRz-UAGIQQdclxsf-Qu587x8RwZ0fRCaUAcuPlyR4FttPjBAuCbmelzF0AAcMgfixHnJjFFcvSaXAY2vaIcGbcvjnvMMEccLGr9_pVCYayw6GnKtqFLj07S5Qnn-4IYZ66hQoNvQRM1zxikDh7hafEWGCX-r3wv5wN1dR83gwmFdS8Bz9sT9lFmgpkg3xGjUnV3037cgcftmMCrpQqzgLIJlqS4TTB-JnEkR0Be8c58OBcIocQWRYZDP9yjtTmgARUW3533nyHj5iItuT4g-4HqynCB86MAIi7Yi3Y71T11Juesz_tfdxAWpxXW6WfgJpdeQnwCrE79bnMr7b456"
    ],
    "types": [
      "establishment",
      "point_of_interest"
    ],
    "businessStatus": "OPERATIONAL",
    "placeId": "ChIJ43jYFwDD54gRihLpWk_4MlQ",
    "city": "The Villages",
    "state": "FL"
  },
  {
    "id": "ChIJKeWVKvzp54gRSPbp2tBw3w8",
    "name": "Ezell Recreation Center",
    "slug": "ezell-recreation-center-the-villages-fl",
    "address": "769 Marilee Pl, The Villages, FL 32163, USA",
    "lat": 28.7913176,
    "lng": -81.9681382,
    "rating": 4.8,
    "reviewCount": 153,
    "photos": [
      "ATCDNfWo_T2J6RF_eteb_GlBlC_TJoyRDjD1OTBlqKJD1lpvTlYARI34KkacgnnmFxd6J3cykQa47l2f-a5cDJRD4hlNUpvpCHvL6evLEY0xo4mj-cs2bbJV-3Ckl1UHU1gjJiszQoXaelucx8CZaAD1QIlwDTyjARgAAhmvexa9VgTw3udx5F8DJUWnolQuT6ZvyN5EimO082N4-0r1uWozk4xZfYFGMnJXPNfHhB8se9j40OwefIAz5vPabh1eqz8NN5NOhCL_HqaV96YGw7xXxGn1-gkRwL1rlRh4_HnRCR165_GTyflFRpogQbpvCWVrvjyHt738e0x6dIuBRVDAHnvHSecWuCe2ebjVs3yE8RGEtxvT5vLBhKpBXvsmk3Kv0b43d92WkQdWjxntBCiVSrTNgzw6iZhztyX7osEaWpHydQ"
    ],
    "types": [
      "establishment",
      "point_of_interest"
    ],
    "businessStatus": "OPERATIONAL",
    "placeId": "ChIJKeWVKvzp54gRSPbp2tBw3w8",
    "city": "The Villages",
    "state": "FL"
  },
  {
    "id": "ChIJs9FZfADD54gRV-Nm_Tz1irI",
    "name": "Eisenhower Pickleball Courts",
    "slug": "eisenhower-pickleball-courts-the-villages-fl",
    "address": "3560 Buena Vista Blvd, The Villages, FL 32163, USA",
    "lat": 28.846843,
    "lng": -82.015794,
    "types": [
      "establishment",
      "point_of_interest"
    ],
    "businessStatus": "OPERATIONAL",
    "placeId": "ChIJs9FZfADD54gRV-Nm_Tz1irI",
    "city": "The Villages",
    "state": "FL"
  },
  {
    "id": "ChIJDzRiNQDD54gRM0e82lXBW4g",
    "name": "Burnsed Pickleball Courts",
    "slug": "burnsed-pickleball-courts-the-villages-fl",
    "address": "4019 Deskin Ln, The Villages, FL 32163, USA",
    "lat": 28.8355865,
    "lng": -81.9652084,
    "types": [
      "establishment",
      "point_of_interest"
    ],
    "businessStatus": "OPERATIONAL",
    "placeId": "ChIJDzRiNQDD54gRM0e82lXBW4g",
    "city": "The Villages",
    "state": "FL"
  },
  {
    "id": "ChIJOewUAgDD54gR0_bB8hygtnw",
    "name": "Captiva Pickleball Courts",
    "slug": "captiva-pickleball-courts-the-villages-fl",
    "address": "658 Pinellas Pl, The Villages, FL 32163, USA",
    "lat": 28.858589,
    "lng": -81.96620700000001,
    "types": [
      "establishment",
      "point_of_interest"
    ],
    "businessStatus": "OPERATIONAL",
    "placeId": "ChIJOewUAgDD54gR0_bB8hygtnw",
    "city": "The Villages",
    "state": "FL"
  },
  {
    "id": "ChIJgf1QENfD54gRpPd6co8lt2M",
    "name": "Moyer Recreation Center",
    "slug": "moyer-recreation-center-the-villages-fl",
    "address": "3000 Moyer Loop, The Villages, FL 32163, USA",
    "lat": 28.8597583,
    "lng": -81.95099119999999,
    "rating": 4.6,
    "reviewCount": 83,
    "photos": [
      "ATCDNfUI5NL9pNtJcNj_TYh9lZ4XGxB70M-PwuwGH2tjLmzJ-RGH56TC54BMVnJIJ15RLPu82pL9hearT0-Yons1PLJwgYxBd12Laxie-PZO2NAHDbLeRaLaur3MfkjhftTLXt1z0ec8SIgZ7Z_UGAS7AhRiDOnoU5vm8Uw4J4nlwJK1zXeE9dbPoS4wy7bp3C38_TE7a6ElTELry1ZjFqLK-nCDbos0RnjQmsLJHjjprN7IZeeWL5YkI56H-5fRkjWZBVkelJug7LiSgxpOzf_-0mjVgj2hkLBc4Nqlla6GR50bYQ"
    ],
    "types": [
      "establishment",
      "point_of_interest"
    ],
    "businessStatus": "OPERATIONAL",
    "placeId": "ChIJgf1QENfD54gRpPd6co8lt2M",
    "city": "The Villages",
    "state": "FL"
  },
  {
    "id": "ChIJUfblpbnD54gR-VS_J0Cl-eg",
    "name": "Truman Recreation Center",
    "slug": "truman-recreation-center-the-villages-fl",
    "address": "2705 Canal St, The Villages, FL 32162, USA",
    "lat": 28.8681487,
    "lng": -81.9790525,
    "rating": 4.6,
    "reviewCount": 74,
    "photos": [
      "ATCDNfV8WhswXmfFgDMFNGYQqYdvuzOZAaNEe3mX_dkVvRdlOMjY3aJmFOSgo4FQ1e4yQ8cxR0me2BS-q18VCxen7sG_i1P_OpPK_oAo3cnQnjNHHhaCajjMebYkCRS9ok4P9dJy1JMnhIEU_2rHUq1qJWZoQF4dPrT6hz11EfKW3qEuvd-9mxB1wxq3taEPBKXzblzrXGAdXwbByWHYUjkGmAZ1bMsPJZEKvjFT97pweCvbrTsllSLBmpAKSwNyqsc_Lyo8vZnquXAOfUz-ftWAHI-_js53EhX-e-V7KuKNX8-d8A"
    ],
    "types": [
      "establishment",
      "point_of_interest"
    ],
    "businessStatus": "OPERATIONAL",
    "placeId": "ChIJUfblpbnD54gR-VS_J0Cl-eg",
    "city": "The Villages",
    "state": "FL"
  },
  {
    "id": "ChIJq2TVQADD54gRUNlIZg-W4Vs",
    "name": "Odell Recreation Center",
    "slug": "odell-recreation-center-the-villages-fl",
    "address": "2260 Odell Cir, The Villages, FL 32162, USA",
    "lat": 28.8787192,
    "lng": -81.9596337,
    "rating": 4.8,
    "reviewCount": 12,
    "photos": [
      "ATCDNfUSfRRf4-fYSKhtodxPXjlWDLcRPKDsZ8bohuSxoNDJtYfxqXZQPPVCZodYDvS62xWD1wxq2jNoBil-wKqJVxVgZ4py734ZRfNBn6-Syq84h5kUyPuy01rSnyveZmIgnTRY7ab9ag9pTOflcO3yx2TL3I_Jp-qsvtG5achkK92nahvcshTXou5pvhqlT4UkO6tykdwZm_sqsEHPld09VdcrM78Q0Ls9W6pgIQEOPJ_D2tZo3U-4f4R5ldvLnlOgoH308jkegnhBrJ5AvLmcaW2HSEDrCpjiebXRQ90u8_NjgtDrBJ2VUUuXCa1Coq7JF5iHM4vFJOCILahHjbDwBJmHPhbf5OyJY_EJS7GdIH9G3nqnosLNEL_XbNDLGuco5RivEBoPKaTvIcWbSY3HhOYzUpcKPFGhjNT8VJ7ou5adqM6KgZ35mUFZM8mwg-6K"
    ],
    "types": [
      "establishment",
      "point_of_interest"
    ],
    "businessStatus": "OPERATIONAL",
    "placeId": "ChIJq2TVQADD54gRUNlIZg-W4Vs",
    "city": "The Villages",
    "state": "FL"
  },
  {
    "id": "ChIJ79K6w1bD54gR1DL4R80Y3no",
    "name": "Fish Hawk Recreation Center",
    "slug": "fish-hawk-recreation-center-the-villages-fl",
    "address": "2318 Buttonwood Run, The Villages, FL 32162, USA",
    "lat": 28.886985,
    "lng": -82.012067,
    "rating": 4.7,
    "reviewCount": 28,
    "photos": [
      "ATCDNfUniiqoRTcqSircXnxfltsyF_PvcsHcOBdN-eKamsAk2uoZb6XzjnUkStpiOcptBJwsv2nWNeCjuNFR_Y7T2qF3b95Tg4uVdqJ9XvE57XKFTHnGYCt5l3z3BoOTRdR3q2ZARhwrIwsbOA4Qp087pjnLgSM7QB-0oSejW_OUOT260ejr6kuYJrLzxZpUCGfKKxkhfbYJ9nNRu8P6SZ-iFCa8Eek_z12jBxjzeMNnc45T2WmFf5uxK8f9j3UmNWfcQP_NazpQbi-f312H5jKC9lPaHWE7Hp-86bFartELbFHPWYikgU7XHLlZnj4Uz99S9R1JojG3ZjVRTuv-YjLjn3ChZaL_oUxc1dyfXIvZTtw-mEd2U96OVL69riFgoMWWcTuHy84s9hX-TJom057LfnK5lr_roVmLiXQ-Fj07EVMbrJ_q"
    ],
    "types": [
      "establishment",
      "point_of_interest"
    ],
    "businessStatus": "OPERATIONAL",
    "placeId": "ChIJ79K6w1bD54gR1DL4R80Y3no",
    "city": "The Villages",
    "state": "FL"
  },
  {
    "id": "ChIJw7GqXWHp54gR3XvjUJFaE6w",
    "name": "Ezell Pickleball Courts",
    "slug": "ezell-pickleball-courts-the-villages-fl",
    "address": "769 Marilee Pl, Wildwood, FL 34785, USA",
    "lat": 28.790121,
    "lng": -81.9668828,
    "rating": 4.3,
    "reviewCount": 3,
    "photos": [
      "ATCDNfWmJvn5HUclv2-1H59zGGafCcyvzATjG3ikBIHmLcUAojkjQX5Y0I-yGGhYp7PDBQMnnDiMligbBvy4DKD2A7suk4-bpIi84aGCmb_7rXFhqD_hHoaWYCYOAoDgXdRx5ZZ0a-t7p1GVYm1Mh1T7gijjC67kYdbMb1ZXYHQFjGQSaqSW7114slqtOpBBqOOZDdo0ywP2udRlSpRe2tZvXCqO2LvxZEz7g739-YOh4g38a2xbs-qa-oGypSqD5XZmQdz37ZooHxQdV0tGowGWLD9xyTrOOoNEirkA3GwK4wz31zLvMuJGCYhoCta8SD3E8ANhuazmds2f8CsgfgFnMoJ0fcKIvXVbMsru3V5ZmicQmINy7bfEzXh4ogW6WSD8on-yvsFJ8M_dAZMatXXyXULiu1Z1GyYsTinUWlHdvGFssFk2DJO08Fa6lJXcjyR5"
    ],
    "types": [
      "establishment",
      "point_of_interest"
    ],
    "businessStatus": "OPERATIONAL",
    "placeId": "ChIJw7GqXWHp54gR3XvjUJFaE6w",
    "city": "The Villages",
    "state": "FL"
  },
  {
    "id": "ChIJrSKEIq7D54gRM9UFF0WKyHk",
    "name": "Water Lily Pickleball Courts",
    "slug": "water-lily-pickleball-courts-the-villages-fl",
    "address": "4710 Marsh Bend Trl, Wildwood, FL 34785, USA",
    "lat": 28.81720749999999,
    "lng": -82.02137239999999,
    "rating": 4.8,
    "reviewCount": 6,
    "photos": [
      "ATCDNfVWnimpE-BX6RFcpmzIKtKgB9hcLjcHbpPzSyY_NNXOC_KWIKYV8zVnNWXLVxHcVX9XZjQ-Gu936VDGabGPromSqJFSZVqubvtpsYgbZiONfunFrf5mv0QT08jSLCWu3B3468H7FhYokIiHxqRYDdoffEvlzQVp5kPUGMxVDybU6WBYkID75GFbBdg7lJo-7NposgWKJXGWiWCnOQF7po8lmyAscRrDUtSZtmQIVH1Ch43S-hbzvSoOJk9iySFmOFyf3faS6exmZ4jiudQttZFrq8dajmpqLdXdX63tkdwQOwzLGm9YCCGekOmcIAqc8dTQr3gcCM6_jHJ1LJVB9ozgNXrUJLv5V2eC6riFhcm3mjJJxFuyetIQJakuEIZNW9Jli0aIk78wm5xlKCZlIs73VVqEs4T8WtBtScqpe-g5Qyq-c2r9G2KSwzA7AA"
    ],
    "types": [
      "establishment",
      "point_of_interest"
    ],
    "businessStatus": "OPERATIONAL",
    "placeId": "ChIJrSKEIq7D54gRM9UFF0WKyHk",
    "city": "The Villages",
    "state": "FL"
  },
  {
    "id": "ChIJ105o3LLD54gRq6Z-MF9RmAM",
    "name": "Bradenton Swimming Pool",
    "slug": "bradenton-swimming-pool-the-villages-fl",
    "address": "1300 Pinellas Pl, The Villages, FL 32162, USA",
    "lat": 28.8546618,
    "lng": -81.9830953,
    "rating": 4.6,
    "reviewCount": 130,
    "photos": [
      "ATCDNfUvO6G_WzII6_QlcJvspi9ZaOrkv7hdzZyhtr99pcTr0qWzJzwg34JCnbbC5Kdh9TKhSWehAFaKJ6ToTIsmrivg_L9NbUek7rs2GiP1X-GhYQYzmKaYIMTQYkVViNNzjdSbBmdgiLfVNBKomtLBwPla2_W7_54L5OzYaEEi_5M0F7MX_Hgr1J-NaxGurpyVIUnaGnY4Y2IrUPsr-AHK_WCkgtQAiJCBAisMXLYu9_MCNgOhXsA3IczoWAyndBvIdmrKve116aBPjZtVfKKWXWKZBRmsR__RiDgffBxZUtp74qaraxGOPvvxUCX_WKQgKOL_9zgAowktincXoWWfi9NNRxpkqCTrKJct89KGOJjEBAHO16lLuoehVS40Gnz4mt350-rRAUX6BWHHZhArPDGGkYI2CNS_HPUdUFvconNYJr-j"
    ],
    "types": [
      "establishment",
      "point_of_interest"
    ],
    "businessStatus": "OPERATIONAL",
    "placeId": "ChIJ105o3LLD54gRq6Z-MF9RmAM",
    "city": "The Villages",
    "state": "FL"
  },
  {
    "id": "ChIJwx4mbtDF54gR1cZVs-udFQg",
    "name": "Engage Pickleball Pro Shop",
    "slug": "engage-pickleball-pro-shop-the-villages-fl",
    "address": "4095 Co Rd 106, Oxford, FL 34484, USA",
    "lat": 28.9263927,
    "lng": -82.0356443,
    "rating": 4.8,
    "reviewCount": 109,
    "photos": [
      "ATCDNfVURS9js7Rxi8PMgOgnHCJ3w5WOxqn4UbonFnXllTu2XkI9qAp-_k7qvCHaLzGH57ZMPElZQCNpp32Uat0scFEvmD-HaFAKmtdv0CNXGI4zrQZP0ZODGEa9JhGKqDbf8eylXvk564fvDzI2fvYBPTC_RQ0_pimxbGkFjbuvu3iz5Ra_J6pZUSi-r1rjj2UE1Zvepm-z18XAZljdPxZBdPfbwRYEBAq5j7RghK5XZihBEw_303On67JD-cUPqcNLPzDQcMVareTnnmAPUIa4RwccciqgBgX2zjvbRadrRCFNQPXkKNy0aWjbFq-xD01RuzycaGDZTUkxKLn4OQX1GJorvUG1KzxB0YEs_mMza6MN0xadlskV7mYLD_AlsSr2X5wMBJXjU4ox5FFa3Nut6OszBmBz3K8PEIO6ZEhXNQ2dVnC1"
    ],
    "types": [
      "establishment",
      "point_of_interest",
      "store"
    ],
    "businessStatus": "OPERATIONAL",
    "placeId": "ChIJwx4mbtDF54gR1cZVs-udFQg",
    "city": "The Villages",
    "state": "FL"
  },
  {
    "id": "ChIJVyMVeQDF54gRfxHVwNlGVIs",
    "name": "Pickleball Courts",
    "slug": "pickleball-courts-the-villages-fl",
    "address": "17855 SE 97th Ct, Summerfield, FL 34491, USA",
    "lat": 28.962239,
    "lng": -81.99131,
    "types": [
      "establishment",
      "point_of_interest"
    ],
    "businessStatus": "OPERATIONAL",
    "placeId": "ChIJVyMVeQDF54gRfxHVwNlGVIs",
    "city": "The Villages",
    "state": "FL"
  },
  {
    "id": "ChIJr7JoBgDD54gRNgLFRAMDZhw",
    "name": "Bradenton Pickleball Courts",
    "slug": "bradenton-pickleball-courts-the-villages-fl",
    "address": "1300 Pinellas Pl, The Villages, FL 32162, USA",
    "lat": 28.8546849,
    "lng": -81.9841813,
    "types": [
      "establishment",
      "point_of_interest"
    ],
    "businessStatus": "OPERATIONAL",
    "placeId": "ChIJr7JoBgDD54gRNgLFRAMDZhw",
    "city": "The Villages",
    "state": "FL"
  },
  {
    "id": "ChIJjdxfNwDp54gR8J08O2hnfM0",
    "name": "Aviary Pickleball Courts",
    "slug": "aviary-pickleball-courts-the-villages-fl",
    "address": "5748 Morse Blvd, Wildwood, FL 34785, USA",
    "lat": 28.794536,
    "lng": -81.979432,
    "rating": 5,
    "reviewCount": 1,
    "types": [
      "establishment",
      "point_of_interest"
    ],
    "businessStatus": "OPERATIONAL",
    "placeId": "ChIJjdxfNwDp54gR8J08O2hnfM0",
    "city": "The Villages",
    "state": "FL"
  },
  {
    "id": "ChIJj5iFDM7D54gRxPZaeKn3rXM",
    "name": "Captiva Swimming Pool",
    "slug": "captiva-swimming-pool-the-villages-fl",
    "address": "658 Pinellas Pl, The Villages, FL 32162, USA",
    "lat": 28.8582057,
    "lng": -81.9655227,
    "rating": 4.6,
    "reviewCount": 116,
    "photos": [
      "ATCDNfUoHSA2673-cZEDTez_dRCiC3H_Re4qunaY8R2Irdr5PcG-7Bd3-v6UFNeMeg1DKoeyBhYhrXTVJ52iljEtyOBwWkkP_sDyyltNP-KJpkhtgo5-IV_5FXleUftqa0j_XQr6sniEU6KY5jgI_lGEyhrUBW4r_RnNjc7TD2DOawxRwHDhzphPOwgXyGcAvn4HiugnCDk_Bpc6azL_ki2TjIjDtr7OVoDgMYy7YRSOhJ5rP4E1AoVA9Ro7XV_tRS_23qUu5NpysqLyzpvkEAtMNnlgCqL-ZCNL-tbG-RnRrgI9CQ"
    ],
    "types": [
      "establishment",
      "point_of_interest"
    ],
    "businessStatus": "OPERATIONAL",
    "placeId": "ChIJj5iFDM7D54gRxPZaeKn3rXM",
    "city": "The Villages",
    "state": "FL"
  },
  {
    "id": "ChIJaUx-f9jp54gRCxhH9nnwbH8",
    "name": "Everglades Recreation, Sales & Information Center",
    "slug": "everglades-recreation-sales-information-center-the-villages-fl",
    "address": "5497 Marsh Bend Trl, Wildwood, FL 34785, USA",
    "lat": 28.8004231,
    "lng": -82.00401070000001,
    "rating": 4.7,
    "reviewCount": 274,
    "photos": [
      "ATCDNfVxOHfaHKusIBbcxFdkD4ukMgkLflKPoR1_eeMxBSHMx5unl8xHN9HH-nymBSlPCZ4vWi3lzX5leUj8kPgBzZtrThKzuFQqBJlMv0YTknQ8wx0_kLxcjWLWtLODBJnBizZPJTZZjIbTtCfIFm5ldvARJtNpvVqw8iGPwBWZYPF3EEOhVA6ELyaqXtQz0GPhJmGnqoHLg4Mt7TWmUu2LkKIWKwV7fH7A2-vVilDEiIoabasUCH2NgYGfFYDg1-VP0rNsjk9-_9r08F1TcWnUDiEvTt5cygDjPHdA4-ZDJSCtgY7-GBZANeLR6HkdpiN5B3Y3QiAGkf_fzyV6vBAHhaE3f8TyeUpy27kzpK6BOnhpGUB_R0RBOIxAqczAaudnSmGdgNWrMvfneiVoUqMVudQawfjgh9JVRwVD5zZpbAE"
    ],
    "types": [
      "establishment",
      "point_of_interest"
    ],
    "businessStatus": "OPERATIONAL",
    "placeId": "ChIJaUx-f9jp54gRCxhH9nnwbH8",
    "city": "The Villages",
    "state": "FL"
  },
  {
    "id": "ChIJPSP0u7nD54gRnSzB_Jty1Ms",
    "name": "Allamanda Recreation Center",
    "slug": "allamanda-recreation-center-the-villages-fl",
    "address": "1515 St Charles Pl, The Villages, FL 32162, USA",
    "lat": 28.8852237,
    "lng": -81.98923049999999,
    "rating": 4.9,
    "reviewCount": 32,
    "photos": [
      "ATCDNfWbfDP3o9FMeJcF_cqX2kuVS8Mb2QcZ8hyj5JZX_0u-nTRx2JO4jXBlY7IZI7E_vUGduTXzoLMk4notBfdKoA8pbJ3gUUnLiCjtnkW5YLvw5zV6ntS9WXtw1bHQhwMtAesCM3tzKHR1vGSqT3kL4P05KBELMwUqM-PA4x9BS3T_uEFm4IjmUvs6lrhR3GoCWxevbiaTE6phgGwz_7dGMecuKPr1A614EIhMSdg6TUnB-ycHw-Ks64xRnWSiLdZUttJKm_Wh-lekLnESkxUOs_mehImdGJXtqrVrmYcaCH64kYyVBJXD7fWwTEwSpNYl9W-QsW3PbQLKMbO_5KjLP1ft49YiowXsTxligRJYZPSttZhUYHFT77pSH_gCc4R-gcnMNDQOaeMadZq25-OjyMO59RoU_2YjIcECfvj5Io-V7fXr"
    ],
    "types": [
      "establishment",
      "point_of_interest"
    ],
    "businessStatus": "OPERATIONAL",
    "placeId": "ChIJPSP0u7nD54gRnSzB_Jty1Ms",
    "city": "The Villages",
    "state": "FL"
  },
  {
    "id": "ChIJ8bHWZADD54gRzYkDmXUCnwE",
    "name": "Coconut Cove Recreation Center",
    "slug": "coconut-cove-recreation-center-the-villages-fl",
    "address": "1398 Stillwater Trail, The Villages, FL 32162, USA",
    "lat": 28.898101,
    "lng": -81.9556116,
    "rating": 4.9,
    "reviewCount": 12,
    "photos": [
      "ATCDNfXx3x-SDN5Zg78j9smE8BMYDozTryPgr5jBouDYx2Vb2lvY0UGTO88-Q13x3CzH3UWwkGfhFQeceVc639xbkJfO-20wR-9rr-JiiJ7ztC-dXTMvz0XAye7_fjqi9UOhMwHzLH9jeY9FwV8BgqDhFwD3_8_4A-tdACc3MeSfeYXv29yEc846iPc5d_PTYgSSwuzxbtUvykcFY1JUcW0oqdKCl7w468EJVuSZX6KPX5nU340LuPnh7ylvl5h0PMDwjhk01BpbgnPfujmg35L1DSx2D_l--Ark-3-a8kwaBEt9omxoO3FtAa7hsnShz9HpG4XFzhm3Xdmld3zxhGjv0AdM9qAF2AfaIUYUCPNjnOJaFyYvrkktO0ze3R-Z93fld7t0pSMZvgygLWhFb9MLFzcrN6NiHiBnAIYnrhFNB9i_1YeVN3_ImpYfPULX_cMq"
    ],
    "types": [
      "establishment",
      "point_of_interest"
    ],
    "businessStatus": "OPERATIONAL",
    "placeId": "ChIJ8bHWZADD54gRzYkDmXUCnwE",
    "city": "The Villages",
    "state": "FL"
  },
  {
    "id": "ChIJI0gIfgDp54gRK5m1DHYri0M",
    "name": "Saluki Recreation Center",
    "slug": "saluki-recreation-center-the-villages-fl",
    "address": "7504 Marsh Bend Trl, Wildwood, FL 34785, USA",
    "lat": 28.7501173,
    "lng": -81.9901916,
    "rating": 4.9,
    "reviewCount": 49,
    "photos": [
      "ATCDNfXN2yXmfqoBSaCNk8edM0fgYSJaXqSkNMLqU-Xgqu_B8d1VgM_HGzOgiNFeYVkCiF7jqy5JyPWY3rfouO51OIe7BqFTcy8bqAHxdSIRyYaNYJPcMUwZwCZAmTcGDJb2ZRHyVdQziLDJ7KlClGwu0LhCvk1fUZ1sOc-0hmgTWHTInvo3lLK-LWg3GE73PiQkRHhNqPl1BtgD6QIM-6gBdLY25temaJGdiO4fO3axtFJEBoDNHw87vTzOmgeJqD_6-qGvCVBu7TKCGaO_uD-tnLLjlwsVV2wGGoj_WJeuY3VRVXzeIROYwIQb2X5-wKhlLgrr-XWezU3Cby99FQbdt0O4MbSNfYKP3xJG6yCzbUPbkqzQW51E3vJgpcVXx_mjRx8JUqEYsy5aYu4BLCB1JpQxEoliEZ8ajumy-VBQDD-I6Y8rK3Kt5cPOpuWaXHr8"
    ],
    "types": [
      "establishment",
      "point_of_interest"
    ],
    "businessStatus": "OPERATIONAL",
    "placeId": "ChIJI0gIfgDp54gRK5m1DHYri0M",
    "city": "The Villages",
    "state": "FL"
  },
  {
    "id": "ChIJ7SkY5AzF54gR3qUXitTKkEA",
    "name": "Ultimate Pickleball Greece Vacation",
    "slug": "ultimate-pickleball-greece-vacation-the-villages-fl",
    "address": "3212 Roswell Rd, The Villages, FL 32162, USA",
    "lat": 28.93182029999999,
    "lng": -82.0078649,
    "photos": [
      "ATCDNfXIN95uxyDGbbLfP3UWCF_6ezGRtAl4HfFyXNRYlzbKSGZAw54a43sWaPYRNPi9Rf3EEtx7PpEItS5bmOyya6X9_d3ZCdsLnRYY8Zfi3kDVCd_uzmpi6TWHoj6DQQhzgnDsOSsZcCg_aVOqFpf9rif0KrYjoQ9tPXhUxKcu1V1Tj8zs0YmVjLMbObqgBi-M4QLSvZt2dED277FyMO8xJa4cHLRhrA1LdUFtxW7D_rf2-xV0dhkHlTjX5DnXopMRaIw0xRkxZs4TYXEAAgpYrVUgmIr3NA_F_iAgO8--oxZN8Q"
    ],
    "types": [
      "establishment",
      "health",
      "point_of_interest"
    ],
    "businessStatus": "OPERATIONAL",
    "placeId": "ChIJ7SkY5AzF54gR3qUXitTKkEA",
    "city": "The Villages",
    "state": "FL"
  },
  {
    "id": "ChIJAWOY8mXF54gR5DXs1wDW_ZA",
    "name": "Churchill Street Pickleball Courts",
    "slug": "churchill-street-pickleball-courts-the-villages-fl",
    "address": "2375 Churchill Downs, The Villages, FL 32162, USA",
    "lat": 28.9140638,
    "lng": -82.0132989,
    "types": [
      "establishment",
      "point_of_interest"
    ],
    "businessStatus": "OPERATIONAL",
    "placeId": "ChIJAWOY8mXF54gR5DXs1wDW_ZA",
    "city": "The Villages",
    "state": "FL"
  },
  {
    "id": "ChIJ1bopHVbF54gRvIUNg7BJDgw",
    "name": "Mulberry Grove Pickleball Courts",
    "slug": "mulberry-grove-pickleball-courts-the-villages-fl",
    "address": "8445 SE 165th Mulberry Ln, The Villages, FL 32162, USA",
    "lat": 28.98112729999999,
    "lng": -82.0145417,
    "types": [
      "establishment",
      "point_of_interest"
    ],
    "businessStatus": "OPERATIONAL",
    "placeId": "ChIJ1bopHVbF54gRvIUNg7BJDgw",
    "city": "The Villages",
    "state": "FL"
  },
  {
    "id": "ChIJExi1P5LD54gRhJPx-hSisE8",
    "name": "DeLuna Pickleball Courts",
    "slug": "deluna-pickleball-courts-the-villages-fl",
    "address": "4240 Marsh Bend Trl, The Villages, FL 32163, USA",
    "lat": 28.8283189,
    "lng": -82.0373819,
    "types": [
      "establishment",
      "point_of_interest"
    ],
    "businessStatus": "OPERATIONAL",
    "placeId": "ChIJExi1P5LD54gRhJPx-hSisE8",
    "city": "The Villages",
    "state": "FL"
  },
  {
    "id": "ChIJcy4Amlnr54gRKqJBJoMOSDU",
    "name": "P.E.A.R. Park Pickleball Courts",
    "slug": "p-e-a-r-park-pickleball-courts-the-villages-fl",
    "address": "P.E.A.R. Park \"Gateway, 26701 US-27, Leesburg, FL 34748, USA",
    "lat": 28.735771,
    "lng": -81.870263,
    "rating": 4.9,
    "reviewCount": 10,
    "types": [
      "establishment",
      "point_of_interest"
    ],
    "businessStatus": "OPERATIONAL",
    "placeId": "ChIJcy4Amlnr54gRKqJBJoMOSDU",
    "city": "The Villages",
    "state": "FL"
  },
  {
    "id": "ChIJtzYtMADF54gRfpc7Bs6JmAM",
    "name": "Stonecrest Pickleball Field Parking",
    "slug": "stonecrest-pickleball-field-parking-the-villages-fl",
    "address": "Stonecrest, Summerfield, FL 34491, USA",
    "lat": 28.9643308,
    "lng": -81.968162,
    "types": [
      "establishment",
      "point_of_interest"
    ],
    "businessStatus": "OPERATIONAL",
    "placeId": "ChIJtzYtMADF54gRfpc7Bs6JmAM",
    "city": "The Villages",
    "state": "FL"
  },
  {
    "id": "ChIJZe9mXqvp54gRWKXeSwOlJ3I",
    "name": "Spanish Moss Pickleball Courts",
    "slug": "spanish-moss-pickleball-courts-the-villages-fl",
    "address": "3225 Spanish Moss Wy, Wildwood, FL 34785, USA",
    "lat": 28.799342,
    "lng": -82.03729899999999,
    "rating": 5,
    "reviewCount": 1,
    "photos": [
      "ATCDNfXAvOqU597j8BGrd34TIjcF8ropSkAyerSI9s7JPTtpDitaPl5qY9x4pe3EDWwPa2dNwg0oQcoAG5g1IQz3OS0q2Yty0nt99KVqE9NNApAwP37g4x0m9-LZJNDRdgmVd5RK82-8YD2xuPwkHXQIZo0MxKlfExcb9oaHSrbQYuDzPElvTLWXYuH6Kg6LU3-bTOezmZzWi9hpW2YYo4yi7BBMbgdWplEISqtEjBODPn6m3PmOsIeiuObOFj2Q6lQWd0Hnyt9P5qK78qUHZm9500LIkFiYaQiY5fQFnBd6p4hHQDaxz46j5tonjt3Z77EN01XCn5steGwAV0qpVhwQdzBuFpxwubxuFau6OepKIFkHU3NHxcQNYi9GRL5L0RV7eTBsGG3wZpS2QpRVgh0mClW3KbENgaFZjKP3vyByJrKevw"
    ],
    "types": [
      "establishment",
      "point_of_interest"
    ],
    "businessStatus": "OPERATIONAL",
    "placeId": "ChIJZe9mXqvp54gRWKXeSwOlJ3I",
    "city": "The Villages",
    "state": "FL"
  },
  {
    "id": "ChIJh9KLIifF54gRtRMIXjLUgbU",
    "name": "Laurel Manor Pickleball Courts",
    "slug": "laurel-manor-pickleball-courts-the-villages-fl",
    "address": "1985 Laurel Manor Dr, The Villages, FL 32162, USA",
    "lat": 28.9266382,
    "lng": -82.0033222,
    "types": [
      "establishment",
      "point_of_interest"
    ],
    "businessStatus": "OPERATIONAL",
    "placeId": "ChIJh9KLIifF54gRtRMIXjLUgbU",
    "city": "The Villages",
    "state": "FL"
  },
  {
    "id": "ChIJW9QU2D7D54gRY4xfO2QaOyk",
    "name": "Pen-A-Ckle Pickleball Pavillion",
    "slug": "pen-a-ckle-pickleball-pavillion-the-villages-fl",
    "address": "5748 FL-44, Wildwood, FL 34785, USA",
    "lat": 28.8399814,
    "lng": -82.0178131,
    "types": [
      "establishment",
      "point_of_interest"
    ],
    "businessStatus": "OPERATIONAL",
    "placeId": "ChIJW9QU2D7D54gRY4xfO2QaOyk",
    "city": "The Villages",
    "state": "FL"
  },
  {
    "id": "ChIJb1GYHADF54gRNGoNWSqerMQ",
    "name": "Oxford Park Pickleball Courts",
    "slug": "oxford-park-pickleball-courts-the-villages-fl",
    "address": "Oxford Park, 4087 Co Rd 466, Oxford, FL 34484, USA",
    "lat": 28.92682,
    "lng": -82.03528399999999,
    "types": [
      "establishment",
      "point_of_interest"
    ],
    "businessStatus": "OPERATIONAL",
    "placeId": "ChIJb1GYHADF54gRNGoNWSqerMQ",
    "city": "The Villages",
    "state": "FL"
  },
  {
    "id": "ChIJJSrfJgDF54gRW9Fy2m_mPSs",
    "name": "Stonecrest Pickleball Courts",
    "slug": "stonecrest-pickleball-courts-the-villages-fl",
    "address": "11050 SE 176th Place Rd, Summerfield, FL 34491, USA",
    "lat": 28.9652139,
    "lng": -81.9665175,
    "rating": 4.5,
    "reviewCount": 2,
    "types": [
      "establishment",
      "point_of_interest"
    ],
    "businessStatus": "OPERATIONAL",
    "placeId": "ChIJJSrfJgDF54gRW9Fy2m_mPSs",
    "city": "The Villages",
    "state": "FL"
  },
  {
    "id": "ChIJw7ROymjF54gR37VDgqyDSeo",
    "name": "Mulberry Grove Swimming Pool",
    "slug": "mulberry-grove-swimming-pool-the-villages-fl",
    "address": "8445 SE 165th Mulberry Ln, The Villages, FL 32162, USA",
    "lat": 28.9815413,
    "lng": -82.0137584,
    "rating": 4.5,
    "reviewCount": 75,
    "photos": [
      "ATCDNfUG2K3HIndtiPfSuMLvxbhG4juGrQ4qCAgDJC0R7Hz_o58hTguNG_owD5Bq69X0WITeowpWkEqivDgxn6A4xsQso_MHkWbWGkirLGP9NBvXmr-IHgcDalEFn3HOnEUYJqy6PrWBrG7U5LC7I-VtrvO9Vu8_NmK9T0ZPZ-2mquhCOd8Q_mKJsYX2BrcP-4uTpxje8U5s7aioWI2pOzOoR3ZVRWipmmWQXVpaMbaoJEKGMMalSCPWagPzmW-F7ySx8--MBCb4fG547Vkuji7lfR6zVjkWGccmp9ADGsQy90bhl4lsmIjdkTmqhq-YL2ITcLrYdsdwkDQU04ykhkRw24g9QaoWvF4MBZQ7d3be4RmVsNBE4d6RUDCsxtycUIAqt4c4u8nnFeRgulayJLb1Xwa5ZgyXBneYnLcR-svHG31KLf5L"
    ],
    "types": [
      "establishment",
      "point_of_interest"
    ],
    "businessStatus": "OPERATIONAL",
    "placeId": "ChIJw7ROymjF54gR37VDgqyDSeo",
    "city": "The Villages",
    "state": "FL"
  },
  {
    "id": "ChIJo9b4LADp54gR6_GeSvtRO6Y",
    "name": "Olympia Pickleball Courts",
    "slug": "olympia-pickleball-courts-the-villages-fl",
    "address": "1210 McPherson Ter, Sumterville, FL 33585, USA",
    "lat": 28.7633396,
    "lng": -81.9802373,
    "rating": 5,
    "reviewCount": 2,
    "types": [
      "establishment",
      "point_of_interest"
    ],
    "businessStatus": "OPERATIONAL",
    "placeId": "ChIJo9b4LADp54gR6_GeSvtRO6Y",
    "city": "The Villages",
    "state": "FL"
  },
  {
    "id": "ChIJ00K2ra7D54gRqFOiLFV619I",
    "name": "Rohan Pickleball Courts",
    "slug": "rohan-pickleball-courts-the-villages-fl",
    "address": "850 Kristine Way, Wildwood, FL 34785, USA",
    "lat": 28.825671,
    "lng": -81.97205400000001,
    "photos": [
      "ATCDNfVSQAGBQb-8ZAc8oMonI7x648bV42ApCGYmapWFmRlX80gxrtsQalfPa5row3wHM-O-l5-aEItOQLwOKHevZ1aeLCtYhqUOUMRJ3h9WsPgiiEnvd5nvr6jvMAPZEI3UBZa-UnNpXNak_RTHEA2sepH9PskL2Xhfe4F6snGMBSrciutUmAER3xBgqRgAgEcObDycekqMnmRkN7Y2TNWrh0h56t5aXPTJBh4GCfUkuBxnm5wwh2ZSrqrfCdVB9ifBciG8QKydKPWgp8w5bK83cE8hz3ChRDvMw8lV5LfCZwizHAO10qsQ3j-IqntwPlGyemBjY1C0NHH8kE_O_n9f7AJJVWTF32zltqRK-LPkbRSpmG1RxkBB8R8UKFxH2pxQQboHJbskhvEO_-lD7nWS12ZxcIhsCFmCvn__iKUm3ib_EB4"
    ],
    "types": [
      "establishment",
      "point_of_interest"
    ],
    "businessStatus": "OPERATIONAL",
    "placeId": "ChIJ00K2ra7D54gRqFOiLFV619I",
    "city": "The Villages",
    "state": "FL"
  },
  {
    "id": "ChIJRfaNUOrF54gRoNVEIZc-NlA",
    "name": "El Santiago Recreation Center",
    "slug": "el-santiago-recreation-center-the-villages-fl",
    "address": "2373 Enrique Dr, The Villages, FL 32159, USA",
    "lat": 28.9489575,
    "lng": -81.9842769,
    "rating": 4.9,
    "reviewCount": 18,
    "photos": [
      "ATCDNfVfh7Ffj903BFSDUUTaExknfk8GzB_uFXFTyP_FCR8xkeL07i7cE4ftDPBkehyWikF-ooucoOUAdNJDeQ-jIHBywGC566PNQawmjN_7zGH-2D1quz54x-FWuCz29h67LwR4b3R280JbmLFUP4Frm65VFdQOGLxLhHPQa_sg5vRReKAN67RQduHa2Af4OVsQ6AsHadJWpnQ1Kld21KG-IijQ5g3VAKUD3dBiztXEV2KjMMtFUYCC4ZoiqRk5kk2mlRi4mW3Z7fmO9jgPjK2jESLx8Tj544OakpVZoKjlCC6dGnUsBQMHbdC4hKRrDmZ5jqCbQeVrJUTuKXA0Pe1szHgFagxDHbHVB7JLUEC_ju4oLH7nCmDCgNq6n-LKu-QNJdEr_ZjJ00oszxCo--RkJzmadHhihUmHpfiYwXuKUtQ"
    ],
    "types": [
      "establishment",
      "point_of_interest"
    ],
    "businessStatus": "OPERATIONAL",
    "placeId": "ChIJRfaNUOrF54gRoNVEIZc-NlA",
    "city": "The Villages",
    "state": "FL"
  },
  {
    "id": "ChIJVXKejgLD54gRD9GW_BVhqFI",
    "name": "Pickleball Courts",
    "slug": "pickleball-courts-the-villages-fl",
    "address": "40 Continental Blvd, Wildwood, FL 34785, USA",
    "lat": 28.822506,
    "lng": -81.986053,
    "rating": 5,
    "reviewCount": 1,
    "types": [
      "establishment",
      "point_of_interest"
    ],
    "businessStatus": "OPERATIONAL",
    "placeId": "ChIJVXKejgLD54gRD9GW_BVhqFI",
    "city": "The Villages",
    "state": "FL"
  },
  {
    "id": "ChIJSR1pGQDp54gROuBShbuAq18",
    "name": "Saluki Pickleball Courts",
    "slug": "saluki-pickleball-courts-the-villages-fl",
    "address": "7504 Marsh Bend Trl, Wildwood, FL 34785, USA",
    "lat": 28.749794,
    "lng": -81.990329,
    "types": [
      "establishment",
      "point_of_interest"
    ],
    "businessStatus": "OPERATIONAL",
    "placeId": "ChIJSR1pGQDp54gROuBShbuAq18",
    "city": "The Villages",
    "state": "FL"
  },
  {
    "id": "ChIJAZg4OR7H54gROWh3CNxXJjc",
    "name": "Chula Vista Pickleball Courts",
    "slug": "chula-vista-pickleball-courts-the-villages-fl",
    "address": "1011 Rio Grande Ave, Lady Lake, FL 32159, USA",
    "lat": 28.9299613,
    "lng": -81.945612,
    "types": [
      "establishment",
      "point_of_interest"
    ],
    "businessStatus": "OPERATIONAL",
    "placeId": "ChIJAZg4OR7H54gROWh3CNxXJjc",
    "city": "The Villages",
    "state": "FL"
  }
]